{
  "companies": {
    "1502": {
      "name": "NATTER  ELECTRICITE",
      "address": "Rue de la Tuilerie ",
      "city": " ASPACH LE BAS",
      "zip": "68700",
      "phone": "0607769021",
      "mail": null,
      "website": null,
      "manager": "NATTER",
      "tutor": "ZIEGLER MICHEL",
      "gps": {
        "lat": 47.767928,
        "lng": 7.140398
      },
      "tags": [
        20
      ]
    },
    "1503": {
      "name": "ETS BAUER  ELECTRICIT\u00c9-CHAUFFAGE",
      "address": "24 Rue Principale ",
      "city": " BURNHAUPT LE HAUT",
      "zip": "68520",
      "phone": null,
      "mail": null,
      "website": null,
      "manager": "BAUER DANIEL",
      "tutor": "UHLEN MICHEL",
      "gps": {
        "lat": 47.736449,
        "lng": 7.147258
      },
      "tags": [
        20
      ]
    },
    "1504": {
      "name": "HUG SA",
      "address": "9 Rue Cl\u00e9menceau ",
      "city": " CERNAY",
      "zip": "68700",
      "phone": null,
      "mail": null,
      "website": null,
      "manager": null,
      "tutor": null,
      "gps": {
        "lat": 47.809076,
        "lng": 7.176574
      },
      "tags": [
        20,
        24,
        27,
        28
      ]
    },
    "1505": {
      "name": "STEIN  ENERGIE CHAUDI\u00c8RES INDUSTRIELLES",
      "address": "34 Route d'Aspach ",
      "city": " CERNAY",
      "zip": "68700",
      "phone": "0389376118",
      "mail": null,
      "website": null,
      "manager": "COZZI",
      "tutor": "COZZI",
      "gps": {
        "lat": 47.80101,
        "lng": 7.169846
      },
      "tags": [
        20
      ]
    },
    "1506": {
      "name": "SOJINAL",
      "address": "8 rue de Merxheim",
      "city": " ISSENHEIM",
      "zip": "68500",
      "phone": "0389745353",
      "mail": null,
      "website": null,
      "manager": "BALEZEAU THIERRY",
      "tutor": "BALEZEAU THIERRY",
      "gps": {
        "lat": 47.909222,
        "lng": 7.273625
      },
      "tags": [
        20,
        22,
        34
      ]
    },
    "1507": {
      "name": "KOLB FLEURS",
      "address": "6 rue Meyenberg",
      "city": " MASEVAUX",
      "zip": "68290",
      "phone": "0389824570",
      "mail": null,
      "website": null,
      "manager": null,
      "tutor": null,
      "gps": {
        "lat": 47.774799,
        "lng": 6.99481
      },
      "tags": [
        30
      ]
    },
    "1508": {
      "name": "LEVEQUE ETS ELECTRICITE",
      "address": "3 Place des Alli\u00e9s ",
      "city": " MASEVAUX",
      "zip": "68290",
      "phone": "0389824137",
      "mail": null,
      "website": null,
      "manager": "LEVEQUE ALEX",
      "tutor": "LEVEQUE ALEX",
      "gps": {
        "lat": 47.77333,
        "lng": 6.997295
      },
      "tags": [
        20
      ]
    },
    "1509": {
      "name": "MENUIPLAS  SA",
      "address": "7 Place des Alli\u00e9s ",
      "city": " MASEVAUX",
      "zip": "68290",
      "phone": null,
      "mail": null,
      "website": null,
      "manager": "ANQUETIL",
      "tutor": "ANQUETIL",
      "gps": {
        "lat": 47.772612,
        "lng": 6.997327
      },
      "tags": [
        20
      ]
    },
    "1510": {
      "name": "HUBER  ET  CIE  SA",
      "address": "39 Rue de Belfort",
      "city": " MULHOUSE",
      "zip": "68200",
      "phone": "0389421493",
      "mail": null,
      "website": null,
      "manager": "KARA",
      "tutor": "CONVERCEY NATHALIE",
      "gps": {
        "lat": 47.743871,
        "lng": 7.309671
      },
      "tags": [
        20
      ]
    },
    "1511": {
      "name": "INTEGRA LANGUE GROUPE NOVAPERFORMANCE",
      "address": "15 Rue des Fr\u00e8res Lumi\u00e8re",
      "city": " MULHOUSE",
      "zip": "68200",
      "phone": "0389333528",
      "mail": null,
      "website": null,
      "manager": null,
      "tutor": null,
      "gps": {
        "lat": 47.727176,
        "lng": 7.309475
      },
      "tags": [
        26
      ]
    },
    "1512": {
      "name": "PEC - RHIN  SA",
      "address": "Zone Industrielle ",
      "city": " OTTMARSHEIM",
      "zip": "68490",
      "phone": null,
      "mail": null,
      "website": null,
      "manager": "MARTI",
      "tutor": "ALBIETH",
      "gps": {
        "lat": 47.77413,
        "lng": 7.51711
      },
      "tags": [
        20,
        34
      ]
    },
    "1513": {
      "name": "BRUMER",
      "address": "53 rue de la Libert\u00e9 ",
      "city": " PFASTATT",
      "zip": "68120",
      "phone": "0389533469",
      "mail": null,
      "website": null,
      "manager": "DENTZER G\u00c9RARD",
      "tutor": "DENTZER G\u00c9RARD",
      "gps": {
        "lat": 47.760674,
        "lng": 7.303417
      },
      "tags": [
        20
      ]
    },
    "1514": {
      "name": "MAHLE BEHR FRANCE",
      "address": "5 Avenue de la Gare ",
      "city": "ROUFFACH",
      "zip": "68250",
      "phone": "0389735800",
      "mail": null,
      "website": "http://www.mahle.com/mahle/en/about-mahle/locations/6112.jsp",
      "manager": "ROSTOUCHER JEAN-LOUIS",
      "tutor": "CORREIA FRANCISCO",
      "gps": {
        "lat": 47.961594,
        "lng": 7.311275
      },
      "tags": [
        20
      ]
    },
    "1515": {
      "name": "ALU HF",
      "address": "2-4 Rue des Artisans ",
      "city": " SENTHEIM",
      "zip": "68780",
      "phone": null,
      "mail": null,
      "website": null,
      "manager": "HIRTH",
      "tutor": "HIRTH",
      "gps": {
        "lat": 47.758373,
        "lng": 7.049583
      },
      "tags": [
        20
      ]
    },
    "1516": {
      "name": "A.I.F  THANN  SA",
      "address": "78 Faubourg des Vosges ",
      "city": " THANN",
      "zip": "68800",
      "phone": null,
      "mail": null,
      "website": null,
      "manager": "CACHOT",
      "tutor": "VAILLANT",
      "gps": {
        "lat": 47.818454,
        "lng": 7.085971
      },
      "tags": [
        20
      ]
    },
    "1517": {
      "name": "NABIH  ELECTRICITE",
      "address": "3A Faubourg des Vosges",
      "city": " THANN",
      "zip": "68800",
      "phone": null,
      "mail": null,
      "website": null,
      "manager": null,
      "tutor": null,
      "gps": {
        "lat": 47.814667,
        "lng": 7.092737
      },
      "tags": [
        20
      ]
    },
    "1518": {
      "name": "OERTLI SA  TECHNIQUE THERMIQUE",
      "address": "2 Rue Josu\u00e9 Heilmann",
      "city": " VIEUX THANN",
      "zip": "68800",
      "phone": null,
      "mail": null,
      "website": null,
      "manager": "RONGER JEAN-PIERRE",
      "tutor": "LUTTRINGER",
      "gps": {
        "lat": 47.805442,
        "lng": 7.137905
      },
      "tags": [
        20
      ]
    },
    "1519": {
      "name": "SC 2E",
      "address": "53A Rue de R\u00e9ningue",
      "city": " WITTELSHEIM",
      "zip": "68310",
      "phone": null,
      "mail": null,
      "website": null,
      "manager": null,
      "tutor": null,
      "gps": {
        "lat": 47.801441,
        "lng": 7.235093
      },
      "tags": [
        20
      ]
    },
    "1520": {
      "name": "LERCH   ELECTRICITE",
      "address": "14 Rue de Thann ",
      "city": "ALTKIRCH",
      "zip": "68130",
      "phone": null,
      "mail": null,
      "website": null,
      "manager": "LERCH",
      "tutor": "FILLIAT",
      "gps": {
        "lat": 47.63768,
        "lng": 7.233864
      },
      "tags": [
        20
      ]
    },
    "1521": {
      "name": "ALSTOM  SA",
      "address": "3 Avenue des Trois Ch\u00eanes",
      "city": "BELFORT CEDEX",
      "zip": "90018",
      "phone": null,
      "mail": null,
      "website": null,
      "manager": null,
      "tutor": null,
      "gps": {
        "lat": 47.639674,
        "lng": 6.863849
      },
      "tags": [
        20,
        34
      ]
    },
    "1522": {
      "name": "SP AUTOMOBILE",
      "address": "rue de l\u2019industrie quartier de la fonderie",
      "city": "BITSCHWILLER LES THANN",
      "zip": "68620",
      "phone": "0977767634",
      "mail": null,
      "website": null,
      "manager": null,
      "tutor": null,
      "gps": {
        "lat": 47.828264,
        "lng": 7.067768
      },
      "tags": [
        20,
        26
      ]
    },
    "1523": {
      "name": "TRANSDEV GRAND-EST",
      "address": "13 che St Jean",
      "city": "BOLLWILLER",
      "zip": "68540",
      "phone": "0389836666",
      "mail": null,
      "website": null,
      "manager": null,
      "tutor": null,
      "gps": {
        "lat": 47.861246,
        "lng": 7.255284
      },
      "tags": [
        26
      ]
    },
    "1524": {
      "name": "SCHWOB",
      "address": "18 rue Buissonnets",
      "city": "BOURBACH LE HAUT",
      "zip": "68290",
      "phone": "0613084616",
      "mail": null,
      "website": null,
      "manager": "SCHWOB VINCENT",
      "tutor": "SCHWOB VINCENT",
      "gps": {
        "lat": 47.80393,
        "lng": 7.025779
      },
      "tags": [
        20,
        24
      ]
    },
    "1525": {
      "name": "ALSACE CABLAGE ET CONCEPT",
      "address": "Avenue Europe ",
      "city": "BURNHAUPT LE BAS",
      "zip": "68520",
      "phone": null,
      "mail": null,
      "website": null,
      "manager": "ILTIS",
      "tutor": "ILTIS",
      "gps": {
        "lat": 47.714408,
        "lng": 7.168009
      },
      "tags": [
        20
      ]
    },
    "1526": {
      "name": "ALSATRONIC  SA",
      "address": "52 rue de la Gare",
      "city": "BURNHAUPT LE HAUT",
      "zip": "68520",
      "phone": null,
      "mail": null,
      "website": null,
      "manager": "WEISS SYLVIE",
      "tutor": "WEISS SYLVIE",
      "gps": {
        "lat": 47.739897,
        "lng": 7.13541
      },
      "tags": [
        20
      ]
    },
    "1527": {
      "name": "C.E.T. SA",
      "address": "6 rue du Ballon D'Alsace ",
      "city": "BURNHAUPT LE HAUT",
      "zip": "68520",
      "phone": "0389820180",
      "mail": null,
      "website": "www.cet-elec.fr/",
      "manager": "SCHEIBEL FRANCK",
      "tutor": "SCHEIBEL FRANCK",
      "gps": {
        "lat": 47.745882,
        "lng": 7.11574
      },
      "tags": [
        20
      ]
    },
    "1528": {
      "name": "CELLUTEC",
      "address": "3 rue du Ballon d'Alsace",
      "city": "BURNHAUPT LE HAUT",
      "zip": "68520",
      "phone": "0389627171",
      "mail": null,
      "website": "http://www.cellutec.fr/fr/transformateur-de-mousse",
      "manager": "FEDERSPIEL BENOIT",
      "tutor": "TOTO PASCAL",
      "gps": {
        "lat": 47.744534,
        "lng": 7.116243
      },
      "tags": [
        20,
        24,
        34
      ]
    },
    "1529": {
      "name": "GIMFLEX",
      "address": "5 Route de Guewenheim ",
      "city": "BURNHAUPT LE HAUT",
      "zip": "68520",
      "phone": "0389831956",
      "mail": null,
      "website": null,
      "manager": "RL\u00c8NE RUEDY",
      "tutor": "BISCHOFF",
      "gps": {
        "lat": 47.740966,
        "lng": 7.137502
      },
      "tags": [
        20
      ]
    },
    "1530": {
      "name": "GLAS TROSCH ALSACE",
      "address": "Z.I. de la Doller ",
      "city": "BURNHAUPT LE HAUT",
      "zip": "68520",
      "phone": "0389831941",
      "mail": null,
      "website": null,
      "manager": "YER FRANCIS",
      "tutor": "HLER CHRISTIAN",
      "gps": {
        "lat": 47.745164,
        "lng": 7.117262
      },
      "tags": [
        20,
        34
      ]
    },
    "1531": {
      "name": "KRIGELEC SA",
      "address": "3 Rue des Vergers ",
      "city": "BURNHAUPT LE HAUT",
      "zip": "68520",
      "phone": null,
      "mail": null,
      "website": null,
      "manager": null,
      "tutor": null,
      "gps": {
        "lat": 47.733337,
        "lng": 7.144721
      },
      "tags": [
        20
      ]
    },
    "1532": {
      "name": "MAIRIE ",
      "address": "1 Place de la Mairie",
      "city": "BURNHAUPT LE HAUT",
      "zip": "68520",
      "phone": "0389487058",
      "mail": null,
      "website": null,
      "manager": null,
      "tutor": null,
      "gps": {
        "lat": 47.729945,
        "lng": 7.145736
      },
      "tags": [
        26
      ]
    },
    "1533": {
      "name": "MENUISERIE J.B BITSCH",
      "address": "9 rue Basse",
      "city": "BURNHAUPT LE HAUT",
      "zip": "68520",
      "phone": "0389487917",
      "mail": null,
      "website": null,
      "manager": null,
      "tutor": null,
      "gps": {
        "lat": 47.728918,
        "lng": 7.147855
      },
      "tags": [
        26,
        29
      ]
    },
    "1534": {
      "name": "PEGUFORM  FRANCE",
      "address": "50 rue de la Gare",
      "city": "BURNHAUPT LE HAUT",
      "zip": "68520",
      "phone": null,
      "mail": null,
      "website": null,
      "manager": "JEAN FRAN\u00c7OIS GNAUD",
      "tutor": "DIDIER TORREGROSA",
      "gps": {
        "lat": 47.739422,
        "lng": 7.139311
      },
      "tags": [
        20
      ]
    },
    "1535": {
      "name": "CELLUCTEC GROUPE",
      "address": "3 rue du ballon d'Alsace",
      "city": "BURNHAUPT-LE-BAS",
      "zip": "68520",
      "phone": "0389627171",
      "mail": null,
      "website": null,
      "manager": null,
      "tutor": null,
      "gps": {
        "lat": 47.744534,
        "lng": 7.116243
      },
      "tags": [
        26
      ]
    },
    "1536": {
      "name": "EBG",
      "address": "8 rue du chemin de fer Zi la Doller",
      "city": "BURNHAUPT LE HAUT",
      "zip": "68520",
      "phone": "0389537129",
      "mail": null,
      "website": null,
      "manager": "BERNARD CHEL",
      "tutor": "GUIDENN PATRICE",
      "gps": {
        "lat": 47.744454,
        "lng": 7.120832
      },
      "tags": [
        20
      ]
    },
    "1537": {
      "name": "HOPITAL LOCAL DE BUSSANG",
      "address": "3 Rue Lutenbacher - BP 11 ",
      "city": "BUSSANG",
      "zip": "88540",
      "phone": "0329615040",
      "mail": null,
      "website": null,
      "manager": null,
      "tutor": null,
      "gps": {
        "lat": 47.887339,
        "lng": 6.85827
      },
      "tags": [
        19,
        26
      ]
    },
    "1538": {
      "name": "CENTRE HOSPITALIER CERNAY",
      "address": "7 rue Georges Risler ",
      "city": "CERNAY",
      "zip": "68690",
      "phone": "0389385402",
      "mail": null,
      "website": null,
      "manager": null,
      "tutor": null,
      "gps": {
        "lat": 47.806749,
        "lng": 7.173196
      },
      "tags": [
        19,
        26
      ]
    },
    "1539": {
      "name": "CENTRE SOCIO CULTUREL AGORA",
      "address": "7 RUE DE LA 4e DMM ",
      "city": "CERNAY",
      "zip": "68700",
      "phone": "0389379743",
      "mail": null,
      "website": null,
      "manager": null,
      "tutor": null,
      "gps": {
        "lat": 47.800228,
        "lng": 7.173405
      },
      "tags": [
        19,
        26
      ]
    },
    "1540": {
      "name": "CER MULTISERVICES",
      "address": "68 fbg des Vosges",
      "city": "CERNAY",
      "zip": "68700",
      "phone": "0698240880\u00a0",
      "mail": null,
      "website": null,
      "manager": null,
      "tutor": null,
      "gps": {
        "lat": 47.811158,
        "lng": 7.162213
      },
      "tags": [
        20,
        24,
        27,
        28
      ]
    },
    "1541": {
      "name": "CERNELEC",
      "address": "6 Rue des Vignes ",
      "city": "CERNAY",
      "zip": "68700",
      "phone": "0389756779",
      "mail": null,
      "website": null,
      "manager": "UGEL DANIEL",
      "tutor": "UGEL DANIEL",
      "gps": {
        "lat": 47.812958,
        "lng": 7.174778
      },
      "tags": [
        20
      ]
    },
    "1542": {
      "name": "COLOMBA ELECTRICITE",
      "address": "21 A Faubourg de Colmar ",
      "city": "CERNAY",
      "zip": "68700",
      "phone": "0389754247",
      "mail": "electricite.colomba@wanadoo.fr",
      "website": "http://www.colomba-elec.com/",
      "manager": "COLOA PATRICK",
      "tutor": "COLOA PATRICK",
      "gps": {
        "lat": 47.810169,
        "lng": 7.182624
      },
      "tags": [
        20,
        24,
        27,
        28
      ]
    },
    "1543": {
      "name": "COM COM THANN CERNAY",
      "address": "3 rue de Soultz",
      "city": "CERNAY",
      "zip": "68700",
      "phone": "0389754772",
      "mail": null,
      "website": null,
      "manager": null,
      "tutor": null,
      "gps": {
        "lat": 47.810122,
        "lng": 7.17833
      },
      "tags": [
        26
      ]
    },
    "1544": {
      "name": "DECKER / FAUSTIN  ELECTRICITE",
      "address": "14 rue de l'\u00e9glise ",
      "city": "CERNAY",
      "zip": "68700",
      "phone": "0389757228",
      "mail": null,
      "website": "http://www.electricite-decker-faustin.fr/",
      "manager": "DECKER",
      "tutor": "DECKER",
      "gps": {
        "lat": 47.808381,
        "lng": 7.174839
      },
      "tags": [
        20,
        24
      ]
    },
    "1545": {
      "name": "DUPONT DE NEMOURS",
      "address": "82 rue de wittelsheim ",
      "city": "CERNAY",
      "zip": "68700",
      "phone": "0389383838",
      "mail": null,
      "website": null,
      "manager": "FOURNIER RYSE",
      "tutor": "ETTERLEN OLIVIER",
      "gps": {
        "lat": 47.800524,
        "lng": 7.1952
      },
      "tags": [
        20,
        26,
        34
      ]
    },
    "1546": {
      "name": "E.C.I.A",
      "address": "35 Rue de l'Europe ",
      "city": "CERNAY",
      "zip": "68700",
      "phone": "0389376330",
      "mail": null,
      "website": null,
      "manager": null,
      "tutor": null,
      "gps": {
        "lat": 47.789321,
        "lng": 7.182939
      },
      "tags": [
        20
      ]
    },
    "1547": {
      "name": "EREL",
      "address": "16A rue de Schweighouse",
      "city": "CERNAY",
      "zip": "68700",
      "phone": null,
      "mail": null,
      "website": null,
      "manager": "LABIGANG GILLES",
      "tutor": "LABIGANG GILLES",
      "gps": {
        "lat": 47.801059,
        "lng": 7.178342
      },
      "tags": [
        20
      ]
    },
    "1548": {
      "name": "FLOWTEC",
      "address": "35 Rue de l'Europe ",
      "city": "CERNAY",
      "zip": "68700",
      "phone": null,
      "mail": null,
      "website": null,
      "manager": "BERDILLON",
      "tutor": "BERDILLON",
      "gps": {
        "lat": 47.789321,
        "lng": 7.182939
      },
      "tags": [
        20
      ]
    },
    "1549": {
      "name": "IEM",
      "address": "2C rue Laurier",
      "city": "CERNAY",
      "zip": "68700",
      "phone": "0620104406\u00a0\u00a0",
      "mail": null,
      "website": null,
      "manager": null,
      "tutor": null,
      "gps": {
        "lat": 47.804575,
        "lng": 7.197658
      },
      "tags": [
        27,
        28
      ]
    },
    "1550": {
      "name": "KUBLER FRANCE",
      "address": "10 avenue d'Alsace ",
      "city": "CERNAY",
      "zip": "68700",
      "phone": "0389754173",
      "mail": null,
      "website": null,
      "manager": "BOBENRIETH ANDR\u00c9",
      "tutor": "BOBENRIETH ANDR\u00c9",
      "gps": {
        "lat": 47.795284,
        "lng": 7.167532
      },
      "tags": [
        20
      ]
    },
    "1551": {
      "name": "MAISON DE RETRAITE INSTITUT ST ANDRE",
      "address": "43 route d'Aspach ",
      "city": "CERNAY",
      "zip": "68702",
      "phone": "0389759221",
      "mail": null,
      "website": null,
      "manager": null,
      "tutor": null,
      "gps": {
        "lat": 47.793863,
        "lng": 7.157516
      },
      "tags": [
        19,
        26
      ]
    },
    "1552": {
      "name": "OMNI",
      "address": "Z.A. du vignoble 1 rue de Vieux-Thann",
      "city": "CERNAY",
      "zip": "68700",
      "phone": null,
      "mail": null,
      "website": null,
      "manager": null,
      "tutor": null,
      "gps": {
        "lat": 47.811283,
        "lng": 7.152886
      },
      "tags": [
        20
      ]
    },
    "1553": {
      "name": "PINA FRAN\u00c7OIS",
      "address": "5 rue Vieux Thann",
      "city": "CERNAY",
      "zip": "68700",
      "phone": "0389756008",
      "mail": null,
      "website": null,
      "manager": null,
      "tutor": null,
      "gps": {
        "lat": 47.810795,
        "lng": 7.153279
      },
      "tags": [
        27,
        28
      ]
    },
    "1554": {
      "name": "PROTECHNIC  SA",
      "address": "66 Rue des Fabriques ",
      "city": "CERNAY",
      "zip": "68700",
      "phone": null,
      "mail": null,
      "website": null,
      "manager": "STRUB",
      "tutor": "STRUB",
      "gps": {
        "lat": 47.809968,
        "lng": 7.189553
      },
      "tags": [
        20
      ]
    },
    "1555": {
      "name": "ROLLIN  SA",
      "address": "2 Grand'Rue ",
      "city": "CERNAY",
      "zip": "68700",
      "phone": "0389384210",
      "mail": null,
      "website": null,
      "manager": "HERR  FRANCIS",
      "tutor": "HERR  FRANCIS",
      "gps": {
        "lat": 47.820065,
        "lng": 7.154529
      },
      "tags": [
        20
      ]
    },
    "1556": {
      "name": "S.I.M.E.  SARL",
      "address": "ZI Europe 31 rue de l'Europe ",
      "city": "CERNAY",
      "zip": "68700",
      "phone": "0389356143",
      "mail": null,
      "website": null,
      "manager": "FREYBURGER OLIVIER",
      "tutor": "FREYBURGER OLIVIER",
      "gps": {
        "lat": 47.791504,
        "lng": 7.18396
      },
      "tags": [
        20
      ]
    },
    "1557": {
      "name": "SERVICE D\u2019ACCOMPAGNEMENT \u00c0 LA VIE SOCIALE (SAVS)",
      "address": "55 faubourg de Belfort ",
      "city": "CERNAY",
      "zip": "68700",
      "phone": "0389754822",
      "mail": null,
      "website": null,
      "manager": null,
      "tutor": null,
      "gps": {
        "lat": 47.796638,
        "lng": 7.174512
      },
      "tags": [
        19,
        26
      ]
    },
    "1558": {
      "name": "ETC - ENNOBLISSEMENT TECHNIQUE DE CERNAY",
      "address": "66 rue des Fabriques ",
      "city": "CERNAY CEDEX",
      "zip": "68702",
      "phone": "0389376800",
      "mail": null,
      "website": null,
      "manager": "SENTHEIM",
      "tutor": "SENTHEIM",
      "gps": {
        "lat": 47.809968,
        "lng": 7.189553
      },
      "tags": [
        20,
        26,
        34,
        35
      ]
    },
    "1559": {
      "name": "MACDERMID  GRAPHIC  ARTS",
      "address": "Rue de l'industrie ",
      "city": "CERNAY CEDEX",
      "zip": "68702",
      "phone": "0389384210",
      "mail": null,
      "website": null,
      "manager": "HARLINGUE CARN",
      "tutor": "TROQUIER",
      "gps": {
        "lat": 47.795279,
        "lng": 7.191562
      },
      "tags": [
        20
      ]
    },
    "1560": {
      "name": "CENTRE D'ACCUEIL ET DE RENCONTRE POUR ADULTES HANDICAP\u00c9S (ARSEA)",
      "address": "18 rue Branly ",
      "city": "COLMAR",
      "zip": "68000",
      "phone": null,
      "mail": null,
      "website": null,
      "manager": null,
      "tutor": null,
      "gps": {
        "lat": 48.093498,
        "lng": 7.377764
      },
      "tags": [
        19,
        26
      ]
    },
    "1561": {
      "name": "CENTRE D\u00c9PARTEMENTAL DE REPOS ET DE SOINS",
      "address": "40 rue du Stauffen BP 70468",
      "city": "COLMAR",
      "zip": "68020",
      "phone": "0389804400",
      "mail": null,
      "website": null,
      "manager": null,
      "tutor": null,
      "gps": {
        "lat": 48.086487,
        "lng": 7.337887
      },
      "tags": [
        19,
        26
      ]
    },
    "1562": {
      "name": "ALAIN R\u00c9NOVATION",
      "address": "28 rue de Reppe",
      "city": "ELBACH",
      "zip": "68210",
      "phone": "0689396255",
      "mail": null,
      "website": null,
      "manager": "BAUDRY ALAIN",
      "tutor": "BAUDRY ALAIN",
      "gps": {
        "lat": 47.642516,
        "lng": 7.071127
      },
      "tags": [
        20
      ]
    },
    "1563": {
      "name": "STE GAUTHERAT ELECTRICITE",
      "address": "r Champs",
      "city": "ELBACH",
      "zip": "68210",
      "phone": "0389251663",
      "mail": null,
      "website": null,
      "manager": "GAUTHERAT",
      "tutor": "GAUTHERAT",
      "gps": {
        "lat": 47.637674,
        "lng": 7.079572
      },
      "tags": [
        20
      ]
    },
    "1564": {
      "name": "MAIRIE",
      "address": "1 Rue de Rougemont ",
      "city": "ETUEFFONT",
      "zip": "90170",
      "phone": "0384546040",
      "mail": null,
      "website": null,
      "manager": null,
      "tutor": null,
      "gps": {
        "lat": 47.722548,
        "lng": 6.921761
      },
      "tags": [
        26
      ]
    },
    "1565": {
      "name": "CEGELEC",
      "address": "685 rue Armand JAPY ",
      "city": "ETUPES",
      "zip": "25460",
      "phone": "0381993640",
      "mail": null,
      "website": "http://www.cegelec.fr/",
      "manager": "ANCEL YVES",
      "tutor": "SCARLATELLA ALEXANDRE",
      "gps": {
        "lat": 47.516976,
        "lng": 6.874676
      },
      "tags": [
        20
      ]
    },
    "1566": {
      "name": "LENELEC   ELECTRICITE CHAUFFAGE",
      "address": "4 rue de l'Abattoir ",
      "city": "GIROMAGNY",
      "zip": "90200",
      "phone": "0384293462",
      "mail": null,
      "website": null,
      "manager": "JEAN PAUL LENFANT",
      "tutor": "JEAN RIE DUBAIL",
      "gps": {
        "lat": 47.737142,
        "lng": 6.831017
      },
      "tags": [
        20
      ]
    },
    "1567": {
      "name": "ETS PAUL ADAM",
      "address": "ZI de la Doller",
      "city": "GUEWENHEIM",
      "zip": "68116",
      "phone": ":0389824037",
      "mail": null,
      "website": null,
      "manager": null,
      "tutor": null,
      "gps": {
        "lat": 47.744912,
        "lng": 7.118408
      },
      "tags": [
        26
      ]
    },
    "1568": {
      "name": "RESIDENCE STE ANNE MAISON DE RETRAITE",
      "address": "9 rue de Belfort ",
      "city": "HEIMSBRUNN",
      "zip": "68990",
      "phone": "0389286282",
      "mail": null,
      "website": null,
      "manager": null,
      "tutor": null,
      "gps": {
        "lat": 47.727863,
        "lng": 7.223327
      },
      "tags": [
        19,
        26
      ]
    },
    "1569": {
      "name": "PARC DE WESSERLING",
      "address": "Rue du Parc",
      "city": "HUSSEREN-WESSERLING",
      "zip": "68470",
      "phone": "0389382808",
      "mail": "infi@parc-wesserling.fr",
      "website": null,
      "manager": null,
      "tutor": null,
      "gps": {
        "lat": 47.885966,
        "lng": 6.998085
      },
      "tags": [
        20,
        26
      ]
    },
    "1570": {
      "name": "CEGELEC NORD-EST SA",
      "address": "15 avenue du Luxembourg",
      "city": "ILLZACH",
      "zip": "68110",
      "phone": "0389618728",
      "mail": null,
      "website": null,
      "manager": "BESSON F.",
      "tutor": "CERE ANTOINE",
      "gps": {
        "lat": 47.769574,
        "lng": 7.367522
      },
      "tags": [
        20
      ]
    },
    "1571": {
      "name": "ALSTOM ENTREPRISE",
      "address": "15 Avenue de Luxembourg ",
      "city": "ILLZACH CEDEX",
      "zip": "68315",
      "phone": null,
      "mail": null,
      "website": null,
      "manager": "BESSON",
      "tutor": "BESSON",
      "gps": {
        "lat": 47.769574,
        "lng": 7.367522
      },
      "tags": [
        20
      ]
    },
    "1572": {
      "name": "E.I.E   ELECTRICITE INDUSTRIELLE",
      "address": "93 rue de Guebwiller ",
      "city": "KINGERSHEIM",
      "zip": "68260",
      "phone": null,
      "mail": null,
      "website": null,
      "manager": "TRAVERSI SYLVAIN",
      "tutor": "GARDNER YVAN",
      "gps": {
        "lat": 47.791991,
        "lng": 7.314856
      },
      "tags": [
        20
      ]
    },
    "1573": {
      "name": "E.M.A.I",
      "address": "131 Rue de Pfastatt ",
      "city": "KINGERSHEIM",
      "zip": "68260",
      "phone": null,
      "mail": null,
      "website": null,
      "manager": "CIANCIO",
      "tutor": "CIANCIO",
      "gps": {
        "lat": 47.784589,
        "lng": 7.312204
      },
      "tags": [
        20
      ]
    },
    "1574": {
      "name": "MICHEL SA",
      "address": "150  rue de Pfastatt ",
      "city": "KINGERSHEIM",
      "zip": "68260",
      "phone": "0389527333",
      "mail": null,
      "website": null,
      "manager": "LLER GERIN",
      "tutor": "WINKELLLER PHILIPPE",
      "gps": {
        "lat": 47.785082,
        "lng": 7.309325
      },
      "tags": [
        20
      ]
    },
    "1575": {
      "name": "S.G.I.E",
      "address": "1 Rue de Hirschau",
      "city": "KINGERSHEIM",
      "zip": "68260",
      "phone": null,
      "mail": null,
      "website": null,
      "manager": null,
      "tutor": null,
      "gps": {
        "lat": 47.789113,
        "lng": 7.336135
      },
      "tags": [
        20
      ]
    },
    "1576": {
      "name": "COMMUNE DE KIRCHBERG",
      "address": "18 rue du moulin",
      "city": "KIRCHBERG",
      "zip": "68290",
      "phone": "0389820200",
      "mail": null,
      "website": null,
      "manager": null,
      "tutor": null,
      "gps": {
        "lat": 47.797752,
        "lng": 6.958783
      },
      "tags": [
        26
      ]
    },
    "1577": {
      "name": "HOPITAL LOCAL",
      "address": "60 Rue Charles de Gaulle ",
      "city": "LE THILLOT CEDEX",
      "zip": "88162",
      "phone": null,
      "mail": null,
      "website": null,
      "manager": null,
      "tutor": null,
      "gps": {
        "lat": 47.877131,
        "lng": 6.768954
      },
      "tags": [
        19,
        26
      ]
    },
    "1578": {
      "name": "CENTRE MEDICAL LALANCE",
      "address": "Voie priv\u00e9e Lalance ",
      "city": "LUTTERBACH",
      "zip": "68460",
      "phone": "0389506750",
      "mail": null,
      "website": null,
      "manager": null,
      "tutor": null,
      "gps": {
        "lat": 47.761097,
        "lng": 7.291384
      },
      "tags": [
        19,
        26
      ]
    },
    "1579": {
      "name": "LES FONTAINES DE LUTTERBACH",
      "address": "1 Rue de la Libert\u00e9 ",
      "city": "LUTTERBACH",
      "zip": "68460",
      "phone": null,
      "mail": null,
      "website": null,
      "manager": null,
      "tutor": null,
      "gps": {
        "lat": 47.758284,
        "lng": 7.289753
      },
      "tags": [
        19,
        26
      ]
    },
    "1580": {
      "name": "AUTO CABLE",
      "address": "1 rue de la Clairi\u00e8re",
      "city": "MASEVAUX",
      "zip": "68290",
      "phone": null,
      "mail": null,
      "website": null,
      "manager": "KOENIG RC",
      "tutor": "CAYOT J. CHEL",
      "gps": {
        "lat": 47.751828,
        "lng": 7.007512
      },
      "tags": [
        20
      ]
    },
    "1581": {
      "name": "AUX SENS DES FLEURS",
      "address": "25 rue du Mar\u00e9chal FOCH",
      "city": "MASEVAUX",
      "zip": "68290",
      "phone": "0622198232",
      "mail": null,
      "website": null,
      "manager": null,
      "tutor": null,
      "gps": {
        "lat": 47.7754,
        "lng": 6.995979
      },
      "tags": [
        30
      ]
    },
    "1582": {
      "name": "AXA  ASSURANCE",
      "address": "28a rue du g\u00e9n\u00e9ral de Gaulle",
      "city": "MASEVAUX",
      "zip": "68290",
      "phone": "0389577171",
      "mail": null,
      "website": null,
      "manager": null,
      "tutor": null,
      "gps": {
        "lat": 47.774294,
        "lng": 6.997999
      },
      "tags": [
        26
      ]
    },
    "1583": {
      "name": "CENTURY 21",
      "address": "26 avenue G\u00e9rard",
      "city": "MASEVAUX",
      "zip": "68290",
      "phone": "0389824513",
      "mail": null,
      "website": null,
      "manager": null,
      "tutor": null,
      "gps": {
        "lat": 47.779233,
        "lng": 6.993372
      },
      "tags": [
        26
      ]
    },
    "1584": {
      "name": "COM COM DE LA VALL\u00c9E DE LA DOLLER ET DU SOULTZBACH",
      "address": "9 place des alli\u00e9s",
      "city": "MASEVAUX",
      "zip": "68290",
      "phone": "0389388175",
      "mail": null,
      "website": null,
      "manager": null,
      "tutor": null,
      "gps": {
        "lat": 47.772994,
        "lng": 6.996465
      },
      "tags": []
    },
    "1585": {
      "name": "ESPACE BURO",
      "address": "29 rue du Mal Foch",
      "city": "MASEVAUX",
      "zip": "68290",
      "phone": "0389824729",
      "mail": null,
      "website": null,
      "manager": null,
      "tutor": null,
      "gps": {
        "lat": 47.77571,
        "lng": 6.995675
      },
      "tags": [
        26
      ]
    },
    "1586": {
      "name": "FLEURS ET CADEAUX",
      "address": "3 foss\u00e9 des Flagellants",
      "city": "MASEVAUX",
      "zip": "68290",
      "phone": "0687897724",
      "mail": null,
      "website": null,
      "manager": null,
      "tutor": null,
      "gps": {
        "lat": 47.774608,
        "lng": 6.999196
      },
      "tags": [
        30
      ]
    },
    "1587": {
      "name": "HORIZON",
      "address": "22 Rue du Ch\u00eane",
      "city": "MASEVAUX",
      "zip": "68290",
      "phone": "0681530366",
      "mail": null,
      "website": null,
      "manager": "BOEGLIN J. CHEL",
      "tutor": "BOEGLIN J. CHEL",
      "gps": {
        "lat": 47.775358,
        "lng": 6.987704
      },
      "tags": [
        20
      ]
    },
    "1588": {
      "name": "LE TEMPS D'UNE FLEUR",
      "address": "19 place du Lieutenant Colonel Gayardon",
      "city": "MASEVAUX",
      "zip": "68290",
      "phone": "0389380222",
      "mail": null,
      "website": null,
      "manager": null,
      "tutor": null,
      "gps": {
        "lat": 47.774558,
        "lng": 6.996478
      },
      "tags": [
        30
      ]
    },
    "1589": {
      "name": "NATURE ENERGIE FRANCE",
      "address": "6 RUE DE L'EGLISE",
      "city": "MASEVAUX",
      "zip": "68290",
      "phone": "0389820571\u00a0",
      "mail": null,
      "website": null,
      "manager": "LACHAIZE FR\u00c9D\u00c9RIC",
      "tutor": "ROTH CHARLES",
      "gps": {
        "lat": 47.776146,
        "lng": 6.996216
      },
      "tags": [
        20,
        27,
        28
      ]
    },
    "1590": {
      "name": "TECHNI-COM",
      "address": "6 Place Cl\u00e9menceau ",
      "city": "MASEVAUX",
      "zip": "68290",
      "phone": "0389828066",
      "mail": null,
      "website": null,
      "manager": "AEBY ROLAND",
      "tutor": "AEBY ROLAND",
      "gps": {
        "lat": 47.774543,
        "lng": 6.998037
      },
      "tags": [
        20
      ]
    },
    "1591": {
      "name": "THUR DOLLER IMMOBILIER",
      "address": "19 place du Lt Colonel GAYARDON",
      "city": "MASEVAUX",
      "zip": "68290",
      "phone": "0389378743",
      "mail": null,
      "website": null,
      "manager": null,
      "tutor": null,
      "gps": {
        "lat": 47.776243,
        "lng": 6.995259
      },
      "tags": [
        26
      ]
    },
    "1592": {
      "name": "VOYAGE GLANTZMANN",
      "address": "5 rue du moulin",
      "city": "MASEVAUX",
      "zip": "68290",
      "phone": "0389824529",
      "mail": null,
      "website": null,
      "manager": null,
      "tutor": null,
      "gps": {
        "lat": 47.773511,
        "lng": 6.995612
      },
      "tags": [
        21,
        25,
        26
      ]
    },
    "1593": {
      "name": "WE BED SAS",
      "address": "ZAC Porte de Masevaux ",
      "city": "MASEVAUX",
      "zip": "68290",
      "phone": "0389386046",
      "mail": null,
      "website": null,
      "manager": null,
      "tutor": null,
      "gps": {
        "lat": 47.774558,
        "lng": 6.996478
      },
      "tags": [
        26
      ]
    },
    "1594": {
      "name": "HYDRA  SA",
      "address": "5 Route Nationale ",
      "city": "MOOSCH",
      "zip": "68690",
      "phone": null,
      "mail": null,
      "website": null,
      "manager": "RCHAL FRAN\u00c7OIS",
      "tutor": "RELLY RAYND",
      "gps": {
        "lat": 47.85905,
        "lng": 7.051458
      },
      "tags": [
        20
      ]
    },
    "1595": {
      "name": "RESPECT DES VALEURS EIRL",
      "address": "5B rue du cimeti\u00e8re militaire ",
      "city": "MOOSCH",
      "zip": "68690",
      "phone": null,
      "mail": null,
      "website": null,
      "manager": null,
      "tutor": null,
      "gps": {
        "lat": 47.860405,
        "lng": 7.053643
      },
      "tags": [
        26
      ]
    },
    "1596": {
      "name": "NT SARL",
      "address": "15 rue Large",
      "city": "MORSCHWILLER LE BAS",
      "zip": "68790",
      "phone": "0389423577",
      "mail": null,
      "website": null,
      "manager": null,
      "tutor": null,
      "gps": {
        "lat": 47.735289,
        "lng": 7.273328
      },
      "tags": [
        20
      ]
    },
    "1597": {
      "name": "ADHAP SERVICES",
      "address": "18 rue Chemnitz",
      "city": "MULHOUSE",
      "zip": "68200",
      "phone": "0389322810",
      "mail": null,
      "website": null,
      "manager": null,
      "tutor": null,
      "gps": {
        "lat": 47.747572,
        "lng": 7.298281
      },
      "tags": [
        26
      ]
    },
    "1598": {
      "name": "ALTERN ELEC",
      "address": "30 rue de Didenheim",
      "city": "MULHOUSE",
      "zip": "68200",
      "phone": "0695396298",
      "mail": null,
      "website": null,
      "manager": null,
      "tutor": null,
      "gps": {
        "lat": 47.741879,
        "lng": 7.311831
      },
      "tags": [
        20
      ]
    },
    "1599": {
      "name": "ATLANTIS",
      "address": "43 Rue Buffon",
      "city": "MULHOUSE",
      "zip": "68200",
      "phone": null,
      "mail": null,
      "website": null,
      "manager": "PENT OLIVIER",
      "tutor": "PENT OLIVIER",
      "gps": {
        "lat": 47.747729,
        "lng": 7.330513
      },
      "tags": [
        20
      ]
    },
    "1600": {
      "name": "CENTRE DE R\u00c9ADAPTATION DE MULHOUSE",
      "address": "57 rue albert Camus",
      "city": "MULHOUSE",
      "zip": "68200",
      "phone": "0389324646",
      "mail": null,
      "website": null,
      "manager": null,
      "tutor": null,
      "gps": {
        "lat": 47.732984,
        "lng": 7.303421
      },
      "tags": [
        19,
        26
      ]
    },
    "1601": {
      "name": "CLINIQUE DE GERONTOLOGIE SAINT DAMIEN",
      "address": "23 Avenue de la 1\u00e8re Division Blind\u00e9e ",
      "city": "MULHOUSE",
      "zip": "68090",
      "phone": null,
      "mail": null,
      "website": null,
      "manager": null,
      "tutor": null,
      "gps": {
        "lat": 47.734132,
        "lng": 7.339273
      },
      "tags": [
        19,
        26
      ]
    },
    "1602": {
      "name": "CONFOR INFORMATIQUE",
      "address": "6 rue Fredo Krumnow ",
      "city": "MULHOUSE",
      "zip": "68100",
      "phone": null,
      "mail": null,
      "website": null,
      "manager": "YER BERNARD",
      "tutor": "YER BERNARD",
      "gps": {
        "lat": 47.746905,
        "lng": 7.298178
      },
      "tags": [
        20
      ]
    },
    "1603": {
      "name": "ELECDOGAN",
      "address": "25 rue des ma\u00e7ons ",
      "city": "MULHOUSE",
      "zip": "68200",
      "phone": null,
      "mail": null,
      "website": null,
      "manager": "AYDOGAN SEDAT",
      "tutor": "AYDOGAN SEDAT",
      "gps": {
        "lat": 47.753967,
        "lng": 7.335448
      },
      "tags": [
        20
      ]
    },
    "1604": {
      "name": "ELECTRI SEDA",
      "address": "63 rue Louise",
      "city": "MULHOUSE",
      "zip": "68200",
      "phone": "0608650286",
      "mail": null,
      "website": null,
      "manager": "SEDA",
      "tutor": "SEDA",
      "gps": {
        "lat": 47.752053,
        "lng": 7.318683
      },
      "tags": [
        20
      ]
    },
    "1605": {
      "name": "FONCIA ALSACE",
      "address": "6 rue du sauvage",
      "city": "MULHOUSE",
      "zip": "68100",
      "phone": "0389566006",
      "mail": null,
      "website": null,
      "manager": null,
      "tutor": null,
      "gps": {
        "lat": 47.746317,
        "lng": 7.341292
      },
      "tags": [
        26
      ]
    },
    "1606": {
      "name": "GARE SNCF DE MULHOUSE",
      "address": "10 avenue du G\u00e9n\u00e9ral Leclerc",
      "city": "MULHOUSE",
      "zip": "68053",
      "phone": null,
      "mail": null,
      "website": null,
      "manager": null,
      "tutor": null,
      "gps": {
        "lat": 47.742034,
        "lng": 7.341944
      },
      "tags": [
        20,
        21,
        25,
        26
      ]
    },
    "1607": {
      "name": "GHR MULHOUSE (HOPITAUX MULHOUSE SUD ALSACE)",
      "address": "87 avenue d'Altkirch",
      "city": "MULHOUSE",
      "zip": "68100",
      "phone": "0389646464",
      "mail": null,
      "website": null,
      "manager": null,
      "tutor": null,
      "gps": {
        "lat": 47.733777,
        "lng": 7.331618
      },
      "tags": [
        19,
        26
      ]
    },
    "1608": {
      "name": "GROUPE VIASPHERE",
      "address": "Parc les collines 33a rue Victor Schoelcher ",
      "city": "MULHOUSE",
      "zip": "68200",
      "phone": null,
      "mail": null,
      "website": null,
      "manager": null,
      "tutor": null,
      "gps": {
        "lat": 47.731914,
        "lng": 7.291099
      },
      "tags": [
        26
      ]
    },
    "1609": {
      "name": "HOTEL BRISTOL",
      "address": "18 avenue de Colmar",
      "city": "MULHOUSE",
      "zip": "68100",
      "phone": "0389421231",
      "mail": null,
      "website": null,
      "manager": null,
      "tutor": null,
      "gps": {
        "lat": 47.751699,
        "lng": 7.338272
      },
      "tags": [
        26
      ]
    },
    "1610": {
      "name": "IMMOBILI\u00c8RE BUECHER",
      "address": "28 rue du sauvage",
      "city": "MULHOUSE",
      "zip": "68100",
      "phone": "0389455073",
      "mail": null,
      "website": null,
      "manager": null,
      "tutor": null,
      "gps": {
        "lat": 47.747484,
        "lng": 7.340303
      },
      "tags": [
        26
      ]
    },
    "1611": {
      "name": "INSTITUT SOPHIE BEAUT\u00c9",
      "address": "28 rue du sauvage",
      "city": "MULHOUSE",
      "zip": "68100",
      "phone": "0389457195",
      "mail": null,
      "website": null,
      "manager": null,
      "tutor": null,
      "gps": {
        "lat": 47.747484,
        "lng": 7.340303
      },
      "tags": [
        32
      ]
    },
    "1612": {
      "name": "M2A",
      "address": "2 Rue Pierre et Marie Curie ",
      "city": "MULHOUSE",
      "zip": "68100",
      "phone": ":0389337979",
      "mail": null,
      "website": null,
      "manager": null,
      "tutor": null,
      "gps": {
        "lat": 47.750298,
        "lng": 7.336134
      },
      "tags": [
        26
      ]
    },
    "1613": {
      "name": "M2A SERVICE HABITAT",
      "address": "8 rue Franklin",
      "city": "MULHOUSE",
      "zip": "68100",
      "phone": null,
      "mail": null,
      "website": null,
      "manager": null,
      "tutor": null,
      "gps": {
        "lat": 47.75253,
        "lng": 7.335881
      },
      "tags": [
        26
      ]
    },
    "1614": {
      "name": "MAISON DU DIACONAT",
      "address": "14 Boulvard du Pr\u00e9sident Roosevelt ",
      "city": "MULHOUSE",
      "zip": "68200",
      "phone": "0389325544",
      "mail": null,
      "website": null,
      "manager": "JEAN-PIERRE BADER",
      "tutor": "KOCH",
      "gps": {
        "lat": 47.749329,
        "lng": 7.331133
      },
      "tags": [
        19,
        20,
        27,
        28
      ]
    },
    "1615": {
      "name": "MULHOUSE HABITAT",
      "address": "20 Boulevard de la Marseillaise",
      "city": "MULHOUSE",
      "zip": "68100",
      "phone": "0389362840",
      "mail": null,
      "website": null,
      "manager": null,
      "tutor": null,
      "gps": {
        "lat": 47.759763,
        "lng": 7.333334
      },
      "tags": [
        26
      ]
    },
    "1616": {
      "name": "QUICK DECO",
      "address": "36 rue Paul C\u00e9zanne",
      "city": "MULHOUSE",
      "zip": "68200",
      "phone": "0389321977",
      "mail": null,
      "website": null,
      "manager": null,
      "tutor": null,
      "gps": {
        "lat": 47.735919,
        "lng": 7.289761
      },
      "tags": [
        20
      ]
    },
    "1617": {
      "name": "S.A.S.I SERVICES INDUSTRIELS",
      "address": "11 Rue Gustave Hirn ",
      "city": "MULHOUSE",
      "zip": "68100",
      "phone": null,
      "mail": null,
      "website": null,
      "manager": null,
      "tutor": null,
      "gps": {
        "lat": 47.74776,
        "lng": 7.300556
      },
      "tags": [
        20
      ]
    },
    "1618": {
      "name": "SIAM CONCESSIONNAIRE PEUGEOT",
      "address": "7 rue de Berne",
      "city": "MULHOUSE",
      "zip": "68100",
      "phone": "0389311414",
      "mail": null,
      "website": null,
      "manager": null,
      "tutor": null,
      "gps": {
        "lat": 47.770296,
        "lng": 7.384587
      },
      "tags": [
        25,
        26
      ]
    },
    "1619": {
      "name": "SIMON",
      "address": "13 rue de la For\u00eat ",
      "city": "MULHOUSE",
      "zip": "68200",
      "phone": "0607616240",
      "mail": null,
      "website": null,
      "manager": "SIN CHEL",
      "tutor": "SIN CHEL",
      "gps": {
        "lat": 47.77861,
        "lng": 7.330891
      },
      "tags": [
        23
      ]
    },
    "1620": {
      "name": "SOMCO AGENCE  DE MULHOUSE",
      "address": "20 porte du miroir",
      "city": "MULHOUSE",
      "zip": "68100",
      "phone": "0389462020",
      "mail": null,
      "website": null,
      "manager": null,
      "tutor": null,
      "gps": {
        "lat": 47.743168,
        "lng": 7.334864
      },
      "tags": [
        26
      ]
    },
    "1621": {
      "name": "SPIE",
      "address": "55 rue de Pfastatt ",
      "city": "MULHOUSE",
      "zip": "68200",
      "phone": null,
      "mail": null,
      "website": null,
      "manager": null,
      "tutor": null,
      "gps": {
        "lat": 47.751951,
        "lng": 7.316791
      },
      "tags": [
        20
      ]
    },
    "1622": {
      "name": "UNIVERSIT\u00c9 DE HAUTE ALSACE - CAMPUS FONDERIE",
      "address": "16 rue de la fonderie",
      "city": "MULHOUSE",
      "zip": "68093",
      "phone": null,
      "mail": null,
      "website": null,
      "manager": null,
      "tutor": null,
      "gps": {
        "lat": 47.738873,
        "lng": 7.332373
      },
      "tags": [
        26
      ]
    },
    "1623": {
      "name": "ZOO DE MULHOUSE",
      "address": "51 rue du jardin zoologique",
      "city": "MULHOUSE",
      "zip": "68100",
      "phone": "0369776565",
      "mail": null,
      "website": null,
      "manager": null,
      "tutor": null,
      "gps": {
        "lat": 47.736448,
        "lng": 7.348758
      },
      "tags": [
        26,
        33
      ]
    },
    "1624": {
      "name": "APAMAD MULHOUSE SERVICE DE SOUTIEN \u00c0 DOMICILE",
      "address": "75 All\u00e9e Gluck",
      "city": "MULHOUSE CEDEX",
      "zip": "68060",
      "phone": null,
      "mail": null,
      "website": null,
      "manager": null,
      "tutor": null,
      "gps": {
        "lat": 47.755318,
        "lng": 7.31835
      },
      "tags": [
        19,
        26
      ]
    },
    "1625": {
      "name": "CENTRE HOSPITALIER DE MULHOUSE",
      "address": "87 Avenue d'Altkirch",
      "city": "MULHOUSE CEDEX",
      "zip": "68051",
      "phone": "0389646816",
      "mail": null,
      "website": null,
      "manager": null,
      "tutor": null,
      "gps": {
        "lat": 47.733777,
        "lng": 7.331618
      },
      "tags": [
        26
      ]
    },
    "1626": {
      "name": "CENTRE HOSPITALIER DU HASENRAIN",
      "address": "87 Avenue d'Altkirch ",
      "city": "MULHOUSE CEDEX",
      "zip": "68051",
      "phone": "0389647858",
      "mail": null,
      "website": null,
      "manager": "CORDIER ELVIS",
      "tutor": "CORDIER ELVIS",
      "gps": {
        "lat": 47.733777,
        "lng": 7.331618
      },
      "tags": [
        20
      ]
    },
    "1627": {
      "name": "CLEMESSY  SA",
      "address": "18 Rue de Thann ",
      "city": "MULHOUSE CEDEX",
      "zip": "68057",
      "phone": "0389321010",
      "mail": null,
      "website": null,
      "manager": "DANOIS CLAIRE",
      "tutor": "CHOK PASCAL",
      "gps": {
        "lat": 47.749457,
        "lng": 7.309766
      },
      "tags": [
        20
      ]
    },
    "1628": {
      "name": "CLINIQUE ST SAUVEUR",
      "address": "1 Rue Saint Sauveur ",
      "city": "MULHOUSE CEDEX",
      "zip": "68090",
      "phone": "0389367526",
      "mail": null,
      "website": null,
      "manager": null,
      "tutor": null,
      "gps": {
        "lat": 47.740913,
        "lng": 7.331961
      },
      "tags": [
        19,
        26
      ]
    },
    "1629": {
      "name": "FOYER NOTRE DAME GROUPE SAINT SAUVEUR",
      "address": "63 rue Th\u00e9nard ",
      "city": "MULHOUSE CEDEX",
      "zip": "68092",
      "phone": "0389423982",
      "mail": null,
      "website": null,
      "manager": null,
      "tutor": null,
      "gps": {
        "lat": 47.749306,
        "lng": 7.323751
      },
      "tags": [
        19,
        26
      ]
    },
    "1630": {
      "name": "LYCEE LOUIS ARMAND",
      "address": "3 boulevard des Nations ",
      "city": "MULHOUSE CEDEX",
      "zip": "68058",
      "phone": null,
      "mail": null,
      "website": null,
      "manager": null,
      "tutor": null,
      "gps": {
        "lat": 47.731092,
        "lng": 7.303909
      },
      "tags": [
        20,
        26
      ]
    },
    "1631": {
      "name": "PYRANIME SONO LASER",
      "address": "15 avenue de Lutterbach ",
      "city": "MULHOUSE CEDEX",
      "zip": "68057",
      "phone": null,
      "mail": null,
      "website": null,
      "manager": "PFLIEGER DENIS",
      "tutor": "PFLIEGER DENIS",
      "gps": {
        "lat": 47.743193,
        "lng": 7.322469
      },
      "tags": [
        20
      ]
    },
    "1632": {
      "name": "KME SAS",
      "address": "Rue Joseph Vogt ",
      "city": "NIEDERBRUCK",
      "zip": "68290",
      "phone": null,
      "mail": null,
      "website": null,
      "manager": null,
      "tutor": null,
      "gps": {
        "lat": 47.78415,
        "lng": 6.970313
      },
      "tags": [
        20
      ]
    },
    "1633": {
      "name": "TREFIMETAUX (EX: KME FRANCE SAS)",
      "address": "Rue Joseph VOGT",
      "city": "NIEDERBRUCK",
      "zip": "68290",
      "phone": "0389385510",
      "mail": null,
      "website": null,
      "manager": null,
      "tutor": null,
      "gps": {
        "lat": 47.78415,
        "lng": 6.970313
      },
      "tags": [
        20,
        26
      ]
    },
    "1634": {
      "name": "NOMMELEC - ELECTRICIT\u00c9 G\u00c9N\u00c9RALE",
      "address": "3 rue de Dambenois",
      "city": "NOMMAY",
      "zip": "25600",
      "phone": "0381946869",
      "mail": null,
      "website": null,
      "manager": "ALTINKAYNAK",
      "tutor": "CAVUS",
      "gps": {
        "lat": 47.539488,
        "lng": 6.850577
      },
      "tags": [
        20
      ]
    },
    "1635": {
      "name": "KOENIG   ETS",
      "address": "21 Rue de Rimbach ",
      "city": "OBERBRUCK",
      "zip": "68290",
      "phone": "0389820386",
      "mail": null,
      "website": null,
      "manager": "KOENIG",
      "tutor": "KOENIG",
      "gps": {
        "lat": 47.811386,
        "lng": 6.943806
      },
      "tags": [
        20
      ]
    },
    "1636": {
      "name": "SOLENE",
      "address": "50 rue principale",
      "city": "OBERBRUCK",
      "zip": "68290",
      "phone": "0389822748",
      "mail": null,
      "website": null,
      "manager": null,
      "tutor": null,
      "gps": {
        "lat": 47.808294,
        "lng": 6.940834
      },
      "tags": [
        20
      ]
    },
    "1637": {
      "name": "AMEC SPIE EST",
      "address": "17 rue de l'\u00e9cluse",
      "city": "PFASTATT",
      "zip": "68120",
      "phone": null,
      "mail": null,
      "website": null,
      "manager": "LANG DONIQUE",
      "tutor": "LANG DONIQUE",
      "gps": {
        "lat": 47.761802,
        "lng": 7.311118
      },
      "tags": [
        20
      ]
    },
    "1638": {
      "name": "S.M.I.R",
      "address": "2 Aire de la Thur",
      "city": "PULVERSHEIM",
      "zip": "68840",
      "phone": "0389836700",
      "mail": null,
      "website": null,
      "manager": null,
      "tutor": null,
      "gps": {
        "lat": 47.833855,
        "lng": 7.301753
      },
      "tags": [
        20,
        21,
        25
      ]
    },
    "1639": {
      "name": "ELECTRICITE PETER",
      "address": "50c rue du Gle de Gaulle ",
      "city": "RANSPACH",
      "zip": "68470",
      "phone": "0614622265",
      "mail": null,
      "website": null,
      "manager": "  PETER DANIEL",
      "tutor": "  PETER DANIEL",
      "gps": {
        "lat": 47.886132,
        "lng": 7.010367
      },
      "tags": [
        20
      ]
    },
    "1640": {
      "name": "ELECTRO M\u00c9CANIQUE BIHL",
      "address": "Zone Activit\u00e9 Tuiliers zone artisanale Tuiliers",
      "city": "RETZWILLER",
      "zip": "68210",
      "phone": "0389250476",
      "mail": null,
      "website": null,
      "manager": null,
      "tutor": null,
      "gps": {
        "lat": 47.623119,
        "lng": 7.10161
      },
      "tags": [
        20
      ]
    },
    "1641": {
      "name": "VENTURI ELECTRICITE SA",
      "address": "6 rue du Commerce ",
      "city": "RIEDISHEIM",
      "zip": "68400",
      "phone": null,
      "mail": null,
      "website": null,
      "manager": "VENTURI",
      "tutor": "VENTURI",
      "gps": {
        "lat": 47.757272,
        "lng": 7.375697
      },
      "tags": [
        20
      ]
    },
    "1642": {
      "name": "PACK INDUSTRIE",
      "address": "Rue Gutenberg ",
      "city": "RIXHEIM",
      "zip": "68170",
      "phone": null,
      "mail": null,
      "website": null,
      "manager": "BRAUNEISEN THIERRY",
      "tutor": "BRAUNEISEN",
      "gps": {
        "lat": 47.757545,
        "lng": 7.407206
      },
      "tags": [
        20
      ]
    },
    "1643": {
      "name": "ADAPEI 90 SECTEUR ENFANCE ET ADOLESCENCE",
      "address": "11 rue de Pfaffans",
      "city": "ROPPE",
      "zip": "90380",
      "phone": null,
      "mail": null,
      "website": null,
      "manager": null,
      "tutor": null,
      "gps": {
        "lat": 47.668619,
        "lng": 6.921404
      },
      "tags": [
        19,
        26
      ]
    },
    "1644": {
      "name": "L'ARROSOIR",
      "address": "1 rue de Leval",
      "city": "ROUGEMONT LE CH\u00c2TEAU",
      "zip": "90110",
      "phone": "0384276140",
      "mail": null,
      "website": null,
      "manager": null,
      "tutor": null,
      "gps": {
        "lat": 47.733365,
        "lng": 6.96952
      },
      "tags": [
        30
      ]
    },
    "1645": {
      "name": "A.D  SCHOETTLE",
      "address": "10 Rue Alcide De Gasperi Parc Espale Europe ",
      "city": "SAUSHEIM",
      "zip": "68390",
      "phone": null,
      "mail": null,
      "website": null,
      "manager": "SCHTT / CHER",
      "tutor": "  EHR RC",
      "gps": {
        "lat": 47.775789,
        "lng": 7.381129
      },
      "tags": [
        20
      ]
    },
    "1646": {
      "name": "ASSOCIATION ICARE",
      "address": "3 rue des daims ",
      "city": "SENTHEIM",
      "zip": "68780",
      "phone": null,
      "mail": null,
      "website": null,
      "manager": null,
      "tutor": null,
      "gps": {
        "lat": 47.757845,
        "lng": 7.058227
      },
      "tags": [
        26
      ]
    },
    "1647": {
      "name": "CENTRE DE SOINS ET DE R\u00c9ADAPTATION SAINT JEAN",
      "address": "1 grand-Rue",
      "city": "SENTHEIM",
      "zip": "68780",
      "phone": "0389385900",
      "mail": null,
      "website": null,
      "manager": null,
      "tutor": null,
      "gps": {
        "lat": 47.757779,
        "lng": 7.058916
      },
      "tags": [
        19,
        26
      ]
    },
    "1648": {
      "name": "DANGEL AUTOMOBILES",
      "address": "5 rue du canal",
      "city": "SENTHEIM",
      "zip": "68780",
      "phone": "0389385700",
      "mail": null,
      "website": null,
      "manager": null,
      "tutor": null,
      "gps": {
        "lat": 47.75735,
        "lng": 7.047974
      },
      "tags": [
        21,
        25,
        26
      ]
    },
    "1649": {
      "name": "ENTREPRISE MAF'ELEC",
      "address": "12 rue Centrale ",
      "city": "SENTHEIM",
      "zip": "68780",
      "phone": "0389488736",
      "mail": null,
      "website": null,
      "manager": "ALOUATNI CHEL",
      "tutor": "ALOUATNI CHEL",
      "gps": {
        "lat": 47.757286,
        "lng": 7.051203
      },
      "tags": [
        20
      ]
    },
    "1650": {
      "name": "HIRTH",
      "address": "22 rue des artisans",
      "city": "SENTHEIM",
      "zip": "68780",
      "phone": "0389825250",
      "mail": null,
      "website": null,
      "manager": null,
      "tutor": null,
      "gps": {
        "lat": 47.757352,
        "lng": 7.042269
      },
      "tags": [
        26
      ]
    },
    "1651": {
      "name": "MAF'ELEC",
      "address": "12 rue centrale",
      "city": "SENTHEIM",
      "zip": "68780",
      "phone": "0624159503",
      "mail": null,
      "website": null,
      "manager": "ALOUATNI",
      "tutor": "ALOUATNI",
      "gps": {
        "lat": 47.757286,
        "lng": 7.051203
      },
      "tags": [
        20
      ]
    },
    "1652": {
      "name": "MARPA DE LA DOLLER",
      "address": "1 rue des daims",
      "city": "SENTHEIM",
      "zip": "68780",
      "phone": null,
      "mail": null,
      "website": null,
      "manager": null,
      "tutor": null,
      "gps": {
        "lat": 47.754801,
        "lng": 7.050426
      },
      "tags": [
        19,
        26
      ]
    },
    "1653": {
      "name": "SOFT'UP",
      "address": "20 rue des Artisans",
      "city": "SENTHEIM",
      "zip": "68780",
      "phone": "0389280988",
      "mail": null,
      "website": null,
      "manager": null,
      "tutor": null,
      "gps": {
        "lat": 47.757775,
        "lng": 7.041684
      },
      "tags": [
        26
      ]
    },
    "1654": {
      "name": "SINGER   S\u00c0RL",
      "address": "41 Rue Principale",
      "city": "SOPPE LE BAS",
      "zip": "68780",
      "phone": null,
      "mail": null,
      "website": null,
      "manager": "  SINGER",
      "tutor": "  SINGER",
      "gps": {
        "lat": 47.718539,
        "lng": 7.099043
      },
      "tags": [
        20
      ]
    },
    "1655": {
      "name": "DIETRICH ELECTRICITE GENERALE",
      "address": "77 Grand'Rue ",
      "city": "SOPPE LE HAUT",
      "zip": "68780",
      "phone": "0389825621",
      "mail": null,
      "website": null,
      "manager": "DIETRICH",
      "tutor": "DIETRICH",
      "gps": {
        "lat": 47.730632,
        "lng": 7.057837
      },
      "tags": [
        20
      ]
    },
    "1656": {
      "name": "SEVENDAY   SA",
      "address": "Z.I Rue de l'Oberwald ",
      "city": "SOULTZ HAUT RHIN",
      "zip": "68360",
      "phone": null,
      "mail": null,
      "website": null,
      "manager": "  RILEN",
      "tutor": "  RILEN",
      "gps": {
        "lat": 47.895049,
        "lng": 7.236702
      },
      "tags": [
        20
      ]
    },
    "1657": {
      "name": "CANSIMAG FRANCE",
      "address": "Zone Industrielle",
      "city": "ST AMARIN",
      "zip": "68550",
      "phone": "0389382210",
      "mail": null,
      "website": "http://www.cansimag.fr/site/Accueil-8.html",
      "manager": "JOHNER S\u00c9BASTIEN",
      "tutor": "JOHNER S\u00c9BASTIEN",
      "gps": {
        "lat": 47.880067,
        "lng": 7.032692
      },
      "tags": [
        20
      ]
    },
    "1658": {
      "name": "HELL   ELECTRICITE",
      "address": "13 Rue du Herrenwald ",
      "city": "ST AMARIN",
      "zip": "68550",
      "phone": "0389827398",
      "mail": null,
      "website": null,
      "manager": "HELL SERGE",
      "tutor": "HELL SERGE",
      "gps": {
        "lat": 47.874838,
        "lng": 7.034745
      },
      "tags": [
        20
      ]
    },
    "1659": {
      "name": "VELCOREX CONCORD SAIC ",
      "address": "14 Rue du Commandant Marceau",
      "city": "ST AMARIN",
      "zip": "68550",
      "phone": "0389386427",
      "mail": null,
      "website": null,
      "manager": "HAEGY JENNIFER",
      "tutor": "  KLEINHANS GILBERT",
      "gps": {
        "lat": 47.871168,
        "lng": 7.031528
      },
      "tags": [
        20,
        26,
        35
      ]
    },
    "1660": {
      "name": "E.T.C   ELECTRICITE",
      "address": "26 Rue Jean Moulin ",
      "city": "STAFFELFELDEN",
      "zip": "68850",
      "phone": null,
      "mail": null,
      "website": null,
      "manager": null,
      "tutor": null,
      "gps": {
        "lat": 47.824454,
        "lng": 7.257837
      },
      "tags": [
        20
      ]
    },
    "1661": {
      "name": "AESA AIR ENGINEERING SA",
      "address": "78 Faubourg des Vosges ",
      "city": "THANN",
      "zip": "68800",
      "phone": "0389383434",
      "mail": "aesa.fr@aesa-ae.com",
      "website": "http://www.aesa-ae.com/en/air-industrie-ameliorair-ltg/",
      "manager": null,
      "tutor": null,
      "gps": {
        "lat": 47.818454,
        "lng": 7.085971
      },
      "tags": [
        20
      ]
    },
    "1662": {
      "name": "APAMAD THANN",
      "address": "30 Avenue du G\u00e9n\u00e9ral de Gaulle ",
      "city": "THANN",
      "zip": "68800",
      "phone": "0389357484",
      "mail": null,
      "website": null,
      "manager": null,
      "tutor": null,
      "gps": {
        "lat": 47.808809,
        "lng": 7.104943
      },
      "tags": [
        19,
        26
      ]
    },
    "1663": {
      "name": "BOULANGERIE RINGENBACH",
      "address": "146 rue de la 1\u00e8re arm\u00e9e",
      "city": "THANN",
      "zip": "68800",
      "phone": "0389370663",
      "mail": null,
      "website": null,
      "manager": null,
      "tutor": null,
      "gps": {
        "lat": 47.812585,
        "lng": 7.099203
      },
      "tags": [
        22
      ]
    },
    "1664": {
      "name": "CHOCOLATERIE DIETSCHIN PASCAL",
      "address": "19 rue de la 1\u00e8re Arm\u00e9e",
      "city": "THANN",
      "zip": "68800",
      "phone": "0389370489",
      "mail": null,
      "website": null,
      "manager": null,
      "tutor": null,
      "gps": {
        "lat": 47.811472,
        "lng": 7.100813
      },
      "tags": [
        22
      ]
    },
    "1665": {
      "name": "ETABLISSEMENT SAINT JOSEPH",
      "address": "42 rue Marsilly ",
      "city": "THANN",
      "zip": "68800",
      "phone": null,
      "mail": null,
      "website": null,
      "manager": null,
      "tutor": null,
      "gps": {
        "lat": 47.814571,
        "lng": 7.104281
      },
      "tags": [
        19,
        26
      ]
    },
    "1666": {
      "name": "ETABLISSEMENT SAINT JOSEPH - GROUPE SAINT SAUVEUR",
      "address": "15 rue du Kattenbachy BP20086",
      "city": "THANN",
      "zip": "68800",
      "phone": "0389375805",
      "mail": null,
      "website": null,
      "manager": null,
      "tutor": null,
      "gps": {
        "lat": 47.814963,
        "lng": 7.103888
      },
      "tags": [
        19,
        26
      ]
    },
    "1667": {
      "name": "MAES   ELECTRICITE",
      "address": "22 rue du 7 aout",
      "city": "THANN",
      "zip": "68800",
      "phone": null,
      "mail": null,
      "website": null,
      "manager": "SERGE",
      "tutor": "SERGE",
      "gps": {
        "lat": 47.809301,
        "lng": 7.102704
      },
      "tags": [
        20
      ]
    },
    "1668": {
      "name": "PATISSERIE ARNOLD",
      "address": "16 rue du G\u00e9n\u00e9ral de Gaulle",
      "city": "THANN",
      "zip": "68800",
      "phone": "0389742006",
      "mail": null,
      "website": null,
      "manager": null,
      "tutor": null,
      "gps": {
        "lat": 47.809956,
        "lng": 7.103383
      },
      "tags": [
        22
      ]
    },
    "1669": {
      "name": "WECO SA DAVID BROWN  FRANCE",
      "address": "33 Rue Henri Lebert ",
      "city": "THANN",
      "zip": "68800",
      "phone": "0389370113",
      "mail": null,
      "website": null,
      "manager": null,
      "tutor": null,
      "gps": {
        "lat": 47.809241,
        "lng": 7.110577
      },
      "tags": [
        20
      ]
    },
    "1670": {
      "name": "EHPAD KORIAN LES 3 SAPINS",
      "address": "24 Avenue de Gubbio ",
      "city": "THANN CEDEX",
      "zip": "68802",
      "phone": "0389374333",
      "mail": null,
      "website": null,
      "manager": null,
      "tutor": null,
      "gps": {
        "lat": 47.79906,
        "lng": 7.11201
      },
      "tags": [
        19,
        26
      ]
    },
    "1671": {
      "name": "A.E.I AUTOMATISME ET ELECTRICIT\u00c9 INDUSTRIELLE",
      "address": "15A  rue Guy de Place",
      "city": "VIEUX THANN",
      "zip": "68800",
      "phone": "0389378787",
      "mail": null,
      "website": null,
      "manager": "DEL-DO  VALERIO",
      "tutor": "  DEL-DO VALERIO",
      "gps": {
        "lat": 47.803467,
        "lng": 7.129436
      },
      "tags": [
        20
      ]
    },
    "1672": {
      "name": "BRAUN  IMPRIMERIE ET EDITIONS SA",
      "address": "1 Rue Gutenberg ",
      "city": "VIEUX THANN",
      "zip": "68800",
      "phone": "0389383030",
      "mail": null,
      "website": "http://www.imprimerie-braun.fr/",
      "manager": "BOHRER",
      "tutor": "BOHRER",
      "gps": {
        "lat": 47.802271,
        "lng": 7.136315
      },
      "tags": [
        20
      ]
    },
    "1673": {
      "name": "FONDIS  SA",
      "address": "18 Rue Guy de Place ",
      "city": "VIEUX THANN",
      "zip": "68800",
      "phone": null,
      "mail": null,
      "website": null,
      "manager": null,
      "tutor": null,
      "gps": {
        "lat": 47.804163,
        "lng": 7.134087
      },
      "tags": [
        20
      ]
    },
    "1674": {
      "name": "AUTO-ECOLE LAMM",
      "address": "35 rue Charles de Gaulle ",
      "city": "VIEUX-THANN",
      "zip": "68800",
      "phone": null,
      "mail": null,
      "website": null,
      "manager": null,
      "tutor": null,
      "gps": {
        "lat": 47.807121,
        "lng": 7.121588
      },
      "tags": [
        25,
        26
      ]
    },
    "1675": {
      "name": "S.I.V.T    SOC. IMPRESSION",
      "address": "5 Rue de l'Eglise",
      "city": "VIEUX-THANN",
      "zip": "68800",
      "phone": null,
      "mail": null,
      "website": null,
      "manager": "SSER",
      "tutor": "  BICKEL",
      "gps": {
        "lat": 47.807885,
        "lng": 7.122693
      },
      "tags": [
        20
      ]
    },
    "1676": {
      "name": "SCAITA   SA",
      "address": "2 Place B. Thierry Mieg",
      "city": "VIEUX-THANN",
      "zip": "68800",
      "phone": null,
      "mail": null,
      "website": null,
      "manager": null,
      "tutor": null,
      "gps": {
        "lat": 47.806476,
        "lng": 7.130944
      },
      "tags": [
        20
      ]
    },
    "1677": {
      "name": "SCHEUBEL   S\u00c0RL",
      "address": "9 Rue de la Thur ",
      "city": "VIEUX-THANN",
      "zip": "68800",
      "phone": null,
      "mail": null,
      "website": null,
      "manager": null,
      "tutor": null,
      "gps": {
        "lat": 47.803908,
        "lng": 7.127454
      },
      "tags": [
        20
      ]
    },
    "1678": {
      "name": "E.R.M.E",
      "address": "16 Rue Langhurst ",
      "city": "WITTELSHEIM",
      "zip": "68310",
      "phone": null,
      "mail": null,
      "website": null,
      "manager": "THIEBAUT",
      "tutor": "THIEBAUT",
      "gps": {
        "lat": 47.791882,
        "lng": 7.237789
      },
      "tags": [
        20
      ]
    },
    "1679": {
      "name": "FEDERATION ADMR",
      "address": "31 rue des Pays Bas",
      "city": "WITTELSHEIM",
      "zip": "68310",
      "phone": "0389351960",
      "mail": null,
      "website": null,
      "manager": null,
      "tutor": null,
      "gps": {
        "lat": 47.771154,
        "lng": 7.237013
      },
      "tags": [
        26
      ]
    },
    "1680": {
      "name": "HIGH TECH PRODUCTIQUE",
      "address": "5 rue de Belgique ZAE Heiden Ouest",
      "city": "WITTELSHEIM",
      "zip": "68310",
      "phone": "0389669790",
      "mail": null,
      "website": "http://www.hightech.fr/",
      "manager": "PIERRE FISCHER",
      "tutor": "JEAN-PIERRE THEVENOT",
      "gps": {
        "lat": 47.773168,
        "lng": 7.227251
      },
      "tags": [
        20
      ]
    },
    "1681": {
      "name": "ATR ELECTRICITE",
      "address": "3 rue de la Jonquille ",
      "city": "WITTENHEIM",
      "zip": "68270",
      "phone": "389625772",
      "mail": null,
      "website": "http://www.atr-electricite.com/",
      "manager": "BIEDRON GILLES",
      "tutor": "HIGELIN CLAUDE",
      "gps": {
        "lat": 47.799583,
        "lng": 7.310126
      },
      "tags": [
        20
      ]
    },
    "1682": {
      "name": "DRAG\u00c9ES GIDA",
      "address": "22 rue Charente",
      "city": "WITTENHEIM",
      "zip": "68270",
      "phone": "389513838",
      "mail": null,
      "website": null,
      "manager": null,
      "tutor": null,
      "gps": {
        "lat": 47.805703,
        "lng": 7.309284
      },
      "tags": [
        22,
        23
      ]
    },
    "1683": {
      "name": "SAFE SAS",
      "address": "66 rue de Kingersheim ",
      "city": "WITTENHEIM",
      "zip": "68270",
      "phone": null,
      "mail": null,
      "website": null,
      "manager": null,
      "tutor": null,
      "gps": {
        "lat": 47.801827,
        "lng": 7.336025
      },
      "tags": [
        26
      ]
    },
    "1684": {
      "name": "MPE M\u00c9CANIQUE DE PR\u00c9CISION DE L'EST",
      "address": "11 rue Joseph Vogt",
      "city": "NIEDERBRUCK",
      "zip": "68290",
      "phone": null,
      "mail": "contact@mpe-prod.com",
      "website": null,
      "manager": "HOOS JEAN-CHEL",
      "tutor": "HOOS JEAN-CHEL",
      "gps": {
        "lat": 47.782003,
        "lng": 6.974467
      },
      "tags": [
        34
      ]
    },
    "1685": {
      "name": "AUTO-CABLE",
      "address": "1 rue de la Clairi\u00e8re",
      "city": "MASEVAUX",
      "zip": "68290",
      "phone": null,
      "mail": "christelle.baton@autokabel.com ",
      "website": null,
      "manager": "BATON CHRISTELLE TUTRICE",
      "tutor": "SARAH KHALFOUN",
      "gps": {
        "lat": 47.751828,
        "lng": 7.007512
      },
      "tags": [
        20,
        34
      ]
    },
    "1686": {
      "name": "GARAGE PASSION M\u00c9CA",
      "address": "29 rue du 2\u00e8me bataillon de choc",
      "city": "MASEVAUX",
      "zip": "68290",
      "phone": null,
      "mail": "passionmeca@gmail.com",
      "website": null,
      "manager": "NILLY EANUEL",
      "tutor": "NILLY EANUEL",
      "gps": {
        "lat": 47.77884,
        "lng": 6.993082
      },
      "tags": [
        21,
        25
      ]
    },
    "1687": {
      "name": "MS RACING",
      "address": "2 rue Grosse Pierre",
      "city": "GUEWENHEIN",
      "zip": "68116",
      "phone": null,
      "mail": "contact@msracing",
      "website": null,
      "manager": "CHA\u00cbL OU C\u00c9LINE SCHLOSSER",
      "tutor": "CHA\u00cbL OU C\u00c9LINE SCHLOSSER",
      "gps": {
        "lat": 47.746582,
        "lng": 7.115973
      },
      "tags": [
        21,
        25
      ]
    },
    "1688": {
      "name": "SARL HATTENBERGER",
      "address": "68 Grande Rue",
      "city": "SENTHEIM",
      "zip": "68780",
      "phone": null,
      "mail": "garage.hattenberger@gmail.com",
      "website": null,
      "manager": "HATTENBERGER PATRICK",
      "tutor": "HATTENBERGER PATRICK",
      "gps": {
        "lat": 47.757281,
        "lng": 7.043429
      },
      "tags": [
        21,
        25
      ]
    },
    "1689": {
      "name": "B.S TOITURES",
      "address": "2 rue des mines",
      "city": "BERRWILLER ",
      "zip": "68500",
      "phone": null,
      "mail": "b.s.toitures@live.fr",
      "website": null,
      "manager": "BAUART THIERRY",
      "tutor": "BAUART THIERRY",
      "gps": {
        "lat": 47.836517,
        "lng": 7.222995
      },
      "tags": [
        24
      ]
    },
    "1690": {
      "name": "BAUMANN SAS",
      "address": "1 rue du G\u00e9n\u00e9ral de Gaulle",
      "city": "MASEVAUX",
      "zip": "68290",
      "phone": null,
      "mail": "contact@baumann-sa.fr",
      "website": null,
      "manager": "BAUNN ST\u00c9PHANE",
      "tutor": "BAUNN ST\u00c9PHANE",
      "gps": {
        "lat": 47.772521,
        "lng": 7.001668
      },
      "tags": [
        22
      ]
    },
    "1691": {
      "name": "CREALIANCE",
      "address": "12 rue Pasteur",
      "city": "MASEVAUX",
      "zip": "68290",
      "phone": null,
      "mail": "crealiance@crealiance.org",
      "website": null,
      "manager": null,
      "tutor": null,
      "gps": {
        "lat": 47.776811,
        "lng": 6.998556
      },
      "tags": [
        19
      ]
    },
    "1692": {
      "name": "LE DRESSING DE LILI",
      "address": "24 rue du G\u00e9n\u00e9ral de Gaulle",
      "city": "MASEVAUX ",
      "zip": "68290",
      "phone": null,
      "mail": "aur\u00e9lie68.beltzung@gmail.com",
      "website": null,
      "manager": "BELTZUNG AUR\u00c9LIE",
      "tutor": "BELTZUNG AUR\u00c9LIE",
      "gps": {
        "lat": 47.774248,
        "lng": 6.998518
      },
      "tags": [
        23
      ]
    },
    "1693": {
      "name": "LINGERIE M ",
      "address": "17 rue du g\u00e9n\u00e9ral de Gaulle",
      "city": "MASEVAUX ",
      "zip": "68290",
      "phone": null,
      "mail": "martine-durieux@hotmail.fr",
      "website": null,
      "manager": "DURIEUX RTINE",
      "tutor": "DURIEUX RTINE",
      "gps": {
        "lat": 47.774196,
        "lng": 6.997668
      },
      "tags": [
        23
      ]
    },
    "1694": {
      "name": "CAMAIEU ",
      "address": "17 rue des clefs ",
      "city": "COLMAR",
      "zip": "68000",
      "phone": null,
      "mail": null,
      "website": null,
      "manager": "TAOUSS RAFIKA",
      "tutor": "TAOUSS RAFIKA",
      "gps": {
        "lat": 48.078158,
        "lng": 7.359962
      },
      "tags": [
        23
      ]
    },
    "1695": {
      "name": "COM COM DE LA VALL\u00c9E DE LA DOLLER ET DU SOULTZBACH",
      "address": "9 place des alli\u00e9s",
      "city": "MASEVAUX",
      "zip": "68290",
      "phone": null,
      "mail": null,
      "website": null,
      "manager": "BAUNT ALEXANDRE",
      "tutor": "BAUNT ALEXANDRE",
      "gps": {
        "lat": 47.772994,
        "lng": 6.996465
      },
      "tags": [
        24
      ]
    },
    "1696": {
      "name": "TR\u00c9FIM\u00c9TAUX",
      "address": "31 Rue Joseph Vogt ",
      "city": "NIEDERBRUCK",
      "zip": "68290",
      "phone": null,
      "mail": "daniel.milliiot@tiefimetaux.fr",
      "website": null,
      "manager": "GRANKLATEN FRANCIS",
      "tutor": "GRANKLATEN FRANCIS",
      "gps": {
        "lat": 47.786957,
        "lng": 6.963693
      },
      "tags": [
        20
      ]
    },
    "1697": {
      "name": "ROSALIE FLEURS",
      "address": "10 rue principale",
      "city": "BURNHAUPT-LE-HAUT",
      "zip": "68520",
      "phone": null,
      "mail": null,
      "website": null,
      "manager": "ROSALIE GRAND",
      "tutor": "ROSALIE GRAND",
      "gps": {
        "lat": 47.738687,
        "lng": 7.14705
      },
      "tags": [
        30
      ]
    },
    "1698": {
      "name": "SAS ASPADIS",
      "address": "Rue du pont d'Aspach",
      "city": "BURNHAUPT-LE-HAUT",
      "zip": "68520",
      "phone": null,
      "mail": "hyperu.burnhauplehaut@systeme.u.com",
      "website": null,
      "manager": "ANDR\u00c9 BUCHNN",
      "tutor": "ANDR\u00c9 BUCHNN",
      "gps": {
        "lat": 47.751039,
        "lng": 7.155204
      },
      "tags": [
        22
      ]
    },
    "1699": {
      "name": "UNE ROS\u00c9E DE DOUCEUR",
      "address": "14 rue Basse",
      "city": "BURNHAUPT-LE-HAUT",
      "zip": "68520",
      "phone": null,
      "mail": null,
      "website": null,
      "manager": "JAT EANUELLE",
      "tutor": "JAT EANUELLE",
      "gps": {
        "lat": 47.728679,
        "lng": 7.148035
      },
      "tags": [
        32
      ]
    },
    "1700": {
      "name": "CARRELAGE TC CONCEPT",
      "address": "25 rue saint Georges",
      "city": "THANN ",
      "zip": "68800",
      "phone": null,
      "mail": "contact@carrelage-tc-concept.fr",
      "website": null,
      "manager": "VAN ASSCHE",
      "tutor": "VAN ASSCHE",
      "gps": {
        "lat": 47.80718,
        "lng": 7.105029
      },
      "tags": [
        24
      ]
    },
    "1701": {
      "name": "SAS RESTAURANT A LA COURONNE",
      "address": "4 Place de la mairie",
      "city": "BURNHAUPT-LE-HAUT",
      "zip": "68520",
      "phone": null,
      "mail": "restaurant-a-la-couronne@hotmail.com",
      "website": null,
      "manager": "BITSCH LA\u00cbTITIA",
      "tutor": "BITSCH LA\u00cbTITIA",
      "gps": {
        "lat": 47.729357,
        "lng": 7.145313
      },
      "tags": [
        22,
        23
      ]
    },
    "1702": {
      "name": "LE SALON-BARBIER",
      "address": "1 rue du Mar\u00e9chal Foch",
      "city": "CERNAY",
      "zip": "68700",
      "phone": null,
      "mail": null,
      "website": null,
      "manager": "CORRA MARIE",
      "tutor": "CORRA MARIE",
      "gps": {
        "lat": 47.808567,
        "lng": 7.175135
      },
      "tags": [
        32
      ]
    },
    "1703": {
      "name": "BELLISISME",
      "address": "8 route Joffre",
      "city": "MASEVAUX",
      "zip": "68290",
      "phone": null,
      "mail": "contact@bellissime.fr",
      "website": null,
      "manager": "ALERXANDRA CLAERR",
      "tutor": "ALERXANDRA CLAERR",
      "gps": {
        "lat": 47.775462,
        "lng": 6.999174
      },
      "tags": [
        32
      ]
    },
    "1704": {
      "name": "LA BOUTIQUE J2B",
      "address": "33 route principale",
      "city": "GUEWENHEIN",
      "zip": "68116",
      "phone": null,
      "mail": null,
      "website": null,
      "manager": "JB BOIXI\u00c8RE",
      "tutor": "JB BOIXI\u00c8RE",
      "gps": {
        "lat": 47.752842,
        "lng": 7.091244
      },
      "tags": [
        22
      ]
    },
    "1705": {
      "name": "EMBALLAGES INDUSTRIELS DE LA DOLLER.",
      "address": "Domaine de l'Abbaye",
      "city": "MASEVAUX",
      "zip": "68290",
      "phone": null,
      "mail": null,
      "website": null,
      "manager": "LERCH",
      "tutor": "LERCH",
      "gps": {
        "lat": 47.772258,
        "lng": 6.999897
      },
      "tags": [
        34
      ]
    },
    "1706": {
      "name": "UNIVERS FOG",
      "address": "Domaine de l'Abbaye",
      "city": "MASEVAUX ",
      "zip": "68290",
      "phone": null,
      "mail": "martine.fl@estvideo.fr",
      "website": null,
      "manager": "FLURHR GILBERT",
      "tutor": "FLURHR GILBERT",
      "gps": {
        "lat": 47.772258,
        "lng": 6.999897
      },
      "tags": [
        24,
        34
      ]
    },
    "1707": {
      "name": "ASSOCIATION LES ECURIEULS",
      "address": "6 rue Foch",
      "city": "WILLER SUR THUR",
      "zip": "68760",
      "phone": null,
      "mail": "p\u00e9riscolaire@willersurthur.fr",
      "website": null,
      "manager": "ZA\u00cfTER NATHALIE",
      "tutor": "ZA\u00cfTER NATHALIE",
      "gps": {
        "lat": 47.843716,
        "lng": 7.072538
      },
      "tags": [
        19
      ]
    },
    "1708": {
      "name": "ATELIER COSMETIK",
      "address": "Pont d'Aspach centre commercial hyper u",
      "city": "BURNHAUPT-LE-HAUT",
      "zip": "68520",
      "phone": null,
      "mail": null,
      "website": null,
      "manager": "GAUGLER MATHIEU",
      "tutor": "SWIRDORSKI C\u00c9LINE",
      "gps": {
        "lat": 47.740636,
        "lng": 7.149175
      },
      "tags": [
        32
      ]
    },
    "1709": {
      "name": "SF GRAND EST MULHOUSE",
      "address": "13 avenue Konrad Adenauer",
      "city": "SAUSHEIM",
      "zip": "68390",
      "phone": null,
      "mail": "cedric.gueth@sfge-mulhouse.fr",
      "website": null,
      "manager": "GUETH C\u00c9DRIC",
      "tutor": "EDEL DAVID",
      "gps": {
        "lat": 47.775112,
        "lng": 7.381382
      },
      "tags": [
        21,
        25
      ]
    },
    "1710": {
      "name": "SODEX TRATTORIA FANCELLO",
      "address": "12 rue Meyenberg",
      "city": "MASEVAUX",
      "zip": "68290",
      "phone": null,
      "mail": null,
      "website": null,
      "manager": "FANCELLO",
      "tutor": "FANCELLO",
      "gps": {
        "lat": 47.774153,
        "lng": 6.994553
      },
      "tags": [
        22
      ]
    },
    "1711": {
      "name": "CR\u00c9DIT MUTUEL BARTHOLDI",
      "address": "2 place de la cath\u00e9drale",
      "city": "COLMAR",
      "zip": "68000",
      "phone": null,
      "mail": "03200@creditmutuel.fr",
      "website": null,
      "manager": "ANNE-CHRISTINE COLOO",
      "tutor": "ANNE-CHRISTINE COLOO",
      "gps": {
        "lat": 48.077822,
        "lng": 7.358437
      },
      "tags": [
        23
      ]
    },
    "1712": {
      "name": "GARAGE JEAN_PAUL ROOS",
      "address": "8 rue de la vall\u00e9e",
      "city": "KIRCHBERG",
      "zip": "68290",
      "phone": null,
      "mail": "garage.roos@orange.fr",
      "website": null,
      "manager": "ROSS BERTRAND",
      "tutor": "ROSS BERTRAND",
      "gps": {
        "lat": 47.79131,
        "lng": 6.96265
      },
      "tags": [
        21,
        25
      ]
    },
    "1713": {
      "name": "H\u00d4TEL RESTAURANT \"AU FLURIDOR\"",
      "address": "54 rue foresti\u00e8re du Steinby",
      "city": "THANN ",
      "zip": "68800",
      "phone": null,
      "mail": "hotel-floridor@wanadoo.fr",
      "website": null,
      "manager": "CRISTEN THI\u00c9BAUT",
      "tutor": "CRISTEN THI\u00c9BAUT",
      "gps": {
        "lat": 47.809197,
        "lng": 7.071447
      },
      "tags": [
        22
      ]
    },
    "1714": {
      "name": "DE FLEUILLES EN FLEURS",
      "address": "134 rue de la 1\u00e8re Arm\u00e9e",
      "city": "THANN",
      "zip": "68800",
      "phone": null,
      "mail": "caro.petite.fleur@hotmail.fr",
      "website": null,
      "manager": "LAOLEY CAROLINE",
      "tutor": "POZZY NALIE.",
      "gps": {
        "lat": 47.812293,
        "lng": 7.099376
      },
      "tags": [
        30
      ]
    },
    "1715": {
      "name": "QUICK EPIL",
      "address": "68 faubourg des Vosges",
      "city": "THANN ",
      "zip": "68700",
      "phone": null,
      "mail": "vava.hutter@icloud.com",
      "website": null,
      "manager": "KIATY HERNGRA",
      "tutor": "KIATY HERNGRA",
      "gps": {
        "lat": 47.815815,
        "lng": 7.088005
      },
      "tags": [
        32
      ]
    },
    "1716": {
      "name": "2V COMP\u00c9TITION",
      "address": "2 rue de la clairi\u00e8re",
      "city": "MASEVAUX ",
      "zip": "68290",
      "phone": null,
      "mail": "guillaumew@estvideo.fr",
      "website": null,
      "manager": "WILL GUILLAU",
      "tutor": "WILL GUILLAU",
      "gps": {
        "lat": 47.754693,
        "lng": 7.004838
      },
      "tags": [
        21,
        25
      ]
    },
    "1717": {
      "name": "LES APPRENTISSAGES",
      "address": "12 rue Georges risler",
      "city": "CERNAY",
      "zip": "68200",
      "phone": "0987401573",
      "mail": "lesapprentissages68@gmail.com",
      "website": null,
      "manager": "GR\u00dbTNER AUDREY",
      "tutor": "GHYSELINCK LANIE",
      "gps": {
        "lat": 47.807962,
        "lng": 7.171768
      },
      "tags": [
        19
      ]
    },
    "1718": {
      "name": "BOULANGERIE FEUERSTEIN",
      "address": "1a rue de Thann",
      "city": "GUEWENHEIN",
      "zip": "68116",
      "phone": null,
      "mail": "lfeuerstein@outlook.fr",
      "website": null,
      "manager": "FEUERSTEIN LAURENT",
      "tutor": "FEUERSTEIN LAURENT",
      "gps": {
        "lat": 47.753299,
        "lng": 7.089759
      },
      "tags": [
        22
      ]
    },
    "1719": {
      "name": "HIRTH MENUISERIE",
      "address": "22 rue des artisans",
      "city": "SENTHEIM",
      "zip": "68780",
      "phone": null,
      "mail": "fermetures@hirth.fr",
      "website": null,
      "manager": "BEHRA RGANE",
      "tutor": "BEHRA RGANE",
      "gps": {
        "lat": 47.757352,
        "lng": 7.042269
      },
      "tags": [
        29
      ]
    },
    "1720": {
      "name": "TRANSPORT MEYER",
      "address": "35 rue saint Michel ",
      "city": "UNGERSHEIM",
      "zip": "68190",
      "phone": null,
      "mail": "meyer.trans@wanadoo.fr",
      "website": null,
      "manager": "YER JOS\u00c9",
      "tutor": "YER JOS\u00c9",
      "gps": {
        "lat": 47.874336,
        "lng": 7.318985
      },
      "tags": [
        21
      ]
    },
    "1721": {
      "name": "SYNDICAT SCOLAIRE PETITE DOLLER",
      "address": "2 place de Rochetoirin",
      "city": "ASPACH-MICHELBACH",
      "zip": "68700",
      "phone": null,
      "mail": "peri@syndicatscolaire-petitedoller.fr",
      "website": null,
      "manager": "HUG ROBIN",
      "tutor": "GASSER RIA",
      "gps": {
        "lat": 47.775092,
        "lng": 7.129733
      },
      "tags": [
        19
      ]
    },
    "1722": {
      "name": "SAS PASSION M\u00c9CA",
      "address": "11 rue de la manufacture royale",
      "city": "WEGSCHEID",
      "zip": "68290",
      "phone": null,
      "mail": "passionmeca01@gmail.com",
      "website": null,
      "manager": "NILLY EANUEL",
      "tutor": "NILLY EANUEL",
      "gps": {
        "lat": 47.80016,
        "lng": 6.953587
      },
      "tags": [
        25
      ]
    },
    "1723": {
      "name": "OPTIQUE GUTLEBEN",
      "address": "1 rue du Mar\u00e9chal Foch",
      "city": "MASEVAUX",
      "zip": "68290",
      "phone": null,
      "mail": "masevaux@optique-gutleben",
      "website": null,
      "manager": "LODIE GUTLEBEN",
      "tutor": "LODIE GUTLEBEN",
      "gps": {
        "lat": 47.774503,
        "lng": 6.997117
      },
      "tags": [
        23
      ]
    },
    "1724": {
      "name": "FLASH INSTAL'",
      "address": "21 rue principale",
      "city": "GUEWENHEIM",
      "zip": "68116",
      "phone": null,
      "mail": "contact@flashinstal.fr",
      "website": null,
      "manager": "WELSCH OLIVIER",
      "tutor": "WELSCH OLIVIER",
      "gps": {
        "lat": 47.752192,
        "lng": 7.094212
      },
      "tags": [
        36
      ]
    },
    "1725": {
      "name": "COIFFURE CAROLINE HANSBERGER. ",
      "address": "4 rue Meyenberg",
      "city": "MASEVAUX ",
      "zip": "68290",
      "phone": null,
      "mail": "carolinehansberger@hotmail.com",
      "website": null,
      "manager": "CAROLINE HANSBERGER.",
      "tutor": "CAROLINE HANSBERGER.",
      "gps": {
        "lat": 47.77503,
        "lng": 6.99482
      },
      "tags": [
        32
      ]
    },
    "1726": {
      "name": "PHARMACIE DE LA CICOGNE",
      "address": "13 place du March\u00e9 ",
      "city": "MUNSTER",
      "zip": "68140",
      "phone": null,
      "mail": "phie.cicogne@perso.alliadis.net",
      "website": null,
      "manager": "ZIRNN V",
      "tutor": "ZIRNN V",
      "gps": {
        "lat": 48.040488,
        "lng": 7.137119
      },
      "tags": [
        23
      ]
    },
    "1727": {
      "name": "BAUER ET FILS SARL",
      "address": "24 rue principale",
      "city": "BURNHAUPT-LE-HAUT",
      "zip": "68520",
      "phone": null,
      "mail": "audrey@bauer-energie.fr",
      "website": null,
      "manager": "BAUER CKA\u00cbL",
      "tutor": "BAUER CKA\u00cbL",
      "gps": {
        "lat": 47.736449,
        "lng": 7.147258
      },
      "tags": [
        20
      ]
    },
    "1728": {
      "name": "SARL SCHMITT GERMAIN",
      "address": "5b de la victoire",
      "city": "WATTWILLER",
      "zip": "68700",
      "phone": null,
      "mail": "schmitt_germain@hotmail.fr",
      "website": null,
      "manager": null,
      "tutor": null,
      "gps": {
        "lat": 47.835925,
        "lng": 7.176868
      },
      "tags": [
        31
      ]
    },
    "1729": {
      "name": "TRAITEUR RISACHER",
      "address": "6 Grand Rue ",
      "city": "SENTHEIM",
      "zip": "68780",
      "phone": null,
      "mail": "prisacher@estvideo.fr",
      "website": null,
      "manager": "PHILIPPE RISACHER",
      "tutor": "PHILIPPE RISACHER",
      "gps": {
        "lat": 47.755893,
        "lng": 7.054001
      },
      "tags": [
        22
      ]
    }
  },
  "tags": {
    "19": {
      "name": "ASSP"
    },
    "20": {
      "name": "MELEC"
    },
    "21": {
      "name": "TRANSPORT "
    },
    "22": {
      "name": "ALIMENTATION"
    },
    "23": {
      "name": "COMMERCE"
    },
    "24": {
      "name": "BATIMENT"
    },
    "25": {
      "name": "AUTOMOBILE"
    },
    "26": {
      "name": "TERTIAIRE"
    },
    "27": {
      "name": "CHAUFFAGISTE"
    },
    "28": {
      "name": "SANITAIRE"
    },
    "29": {
      "name": "MENUISERIE"
    },
    "30": {
      "name": "FLEURISTE"
    },
    "31": {
      "name": "PAYSAGER"
    },
    "32": {
      "name": "ESTH\u00c9TIQUE"
    },
    "33": {
      "name": "ANIMAUX"
    },
    "34": {
      "name": "INDUSTRIE"
    },
    "35": {
      "name": "TEXTILE"
    },
    "36": {
      "name": "INFORMATIQUE"
    }
  }
}